Location,Latitude,Longitude,Time,Severity,Cause
Benz Circle,16.5062,80.6480,Night,High,Speeding
Bandar Road,16.5120,80.6505,Day,Medium,Bad Road
Governorpet,16.5180,80.6300,Night,High,Low Visibility
Auto Nagar,16.4950,80.6700,Day,Low,Traffic
Kanuru,16.5000,80.6900,Night,Medium,Speeding